City_ID,City,Country,Date,Longitude,Latitude,Max Temperature,Humidity,Cloudiness,Wind speed
0,victoria,HK,1584297580,114.16,22.29,68.0,77,20,9.17
1,reshetylivka,UA,1584297695,34.08,49.56,31.44,53,87,11.52
2,margate,GB,1584297647,1.39,51.38,53.01,76,75,14.99
3,cape town,ZA,1584297695,18.42,-33.93,64.99,68,20,29.97
4,rikitea,PF,1584297695,-134.97,-23.12,77.88,81,76,12.77
5,tezu,IN,1584297695,96.17,27.92,65.46,70,93,3.69
6,kailua,US,1584297695,-157.74,21.4,78.8,69,90,6.93
7,kangaatsiaq,GL,1584297696,-53.46,68.31,0.48,91,100,8.37
8,bulgan,MN,1584297696,103.53,48.81,23.34,67,90,7.45
9,morozovsk,RU,1584297696,41.83,48.35,31.08,52,29,9.82
10,hithadhoo,MV,1584297462,73.08,-0.6,84.18,57,34,3.85
11,khatanga,RU,1584297696,102.5,71.97,-16.26,90,100,8.81
12,likasi,CD,1584297696,26.73,-10.98,65.64,94,97,1.9
13,saint-georges,GD,1584297696,-61.75,12.06,77.0,94,75,4.7
14,geraldton,AU,1584297697,114.6,-28.77,66.2,88,72,4.7
15,provideniya,RU,1584297697,-173.3,64.38,25.68,98,100,5.23
16,khandyga,RU,1584297697,135.6,62.67,-16.98,89,38,3.04
17,arlit,NE,1584297697,7.39,18.74,82.02,9,0,7.61
18,kahului,US,1584297697,-156.47,20.89,71.6,88,40,6.93
19,albany,US,1584297697,-73.97,42.6,46.0,17,1,8.05
20,belaya gora,RU,1584297697,146.42,68.53,-26.34,96,0,1.7
21,hervey bay,AU,1584297698,152.85,-25.3,71.6,60,90,14.99
22,lircay,PE,1584297698,-74.72,-12.99,69.8,43,75,4.7
23,bluff,NZ,1584297698,168.33,-46.6,53.01,92,76,10.0
24,ushuaia,AR,1584297482,-68.3,-54.8,64.4,52,40,8.05
25,kapaa,US,1584297462,-159.32,22.08,75.2,73,40,10.29
26,tasiilaq,GL,1584297698,-37.64,65.61,8.6,42,100,21.92
27,kandrian,PG,1584297698,149.55,-6.22,75.0,93,100,6.6
28,sola,VU,1584297699,167.55,-13.88,85.62,78,88,23.87
29,nikolskoye,RU,1584297699,30.79,59.7,35.01,59,30,11.18
30,topeka,US,1584297659,-95.68,39.05,39.2,80,90,8.05
31,naushki,RU,1584297699,106.11,50.38,25.86,80,84,2.77
32,mataura,NZ,1584297699,168.86,-46.19,53.01,92,68,10.0
33,gat,IL,1584297699,34.76,31.61,63.0,82,66,3.36
34,roma,US,1584297424,-75.46,43.21,41.0,27,1,9.17
35,tiksi,RU,1584297700,128.87,71.69,3.0,87,99,18.37
36,chapais,CA,1584297700,-74.85,49.78,8.6,46,1,10.29
37,los llanos de aridane,ES,1584297700,-17.92,28.66,66.2,63,20,19.46
38,burnie,AU,1584297700,145.92,-41.07,55.99,93,26,5.01
39,ostrovnoy,RU,1584297700,39.51,68.05,25.5,89,100,24.23
40,hasaki,JP,1584297700,140.83,35.73,37.4,86,20,5.82
41,skjervoy,NO,1584297700,20.97,70.03,26.58,59,82,15.73
42,hermanus,ZA,1584297700,19.23,-34.42,64.99,77,26,7.0
43,ciudad del maiz,MX,1584297701,-99.6,22.4,78.01,44,90,8.99
44,mahebourg,MU,1584297701,57.7,-20.41,77.0,83,40,5.01
45,yerbogachen,RU,1584297701,108.01,61.28,28.38,96,100,10.56
46,the pas,CA,1584297701,-101.25,53.83,10.4,55,75,6.93
47,gonbad-e qabus,IR,1584297701,55.17,37.25,55.4,82,75,1.68
48,kavieng,PG,1584297702,150.8,-2.57,84.54,70,100,7.74
49,arraial do cabo,BR,1584297702,-42.03,-22.97,86.0,66,0,16.11
50,mar del plata,AR,1584297675,-57.56,-38.0,66.2,63,75,11.41
51,punta arenas,CL,1584297702,-70.92,-53.15,62.6,63,75,34.45
52,auki,SB,1584297702,160.7,-8.77,84.36,74,100,7.4
53,fallon,US,1584297440,-118.78,39.47,51.8,32,75,24.16
54,luanda,AO,1584297702,13.23,-8.84,84.2,79,40,9.17
55,codrington,AU,1584297702,141.97,-38.27,58.62,78,0,14.36
56,qaanaaq,GL,1584297703,-69.36,77.48,-12.3,64,100,2.39
57,verkhnyaya inta,RU,1584297703,60.31,65.98,-3.66,84,0,5.73
58,touros,BR,1584297425,-35.46,-5.2,82.4,78,75,11.41
59,rio grande,BR,1584297443,-52.1,-32.03,80.6,61,90,9.17
60,san vicente,AR,1584297703,-54.13,-26.62,95.88,22,17,4.05
61,vaini,TO,1584297703,-175.2,-21.2,77.0,94,90,6.93
62,hobart,AU,1584297651,147.33,-42.88,53.6,71,90,1.12
63,bathsheba,BB,1584297704,-59.52,13.22,82.4,69,75,10.29
64,jamestown,US,1584297704,-79.24,42.1,44.01,38,1,10.29
65,klyuchevskiy,RU,1584297704,119.45,53.53,9.3,97,85,2.24
66,vardo,NO,1584297704,31.11,70.37,19.4,79,94,27.51
67,srivardhan,IN,1584297704,73.02,18.03,76.62,53,10,4.12
68,cherskiy,RU,1584297704,161.3,68.75,-2.22,97,98,4.79
69,bowling green,US,1584297704,-86.44,36.99,44.6,70,90,9.17
70,xuddur,SO,1584297705,43.89,4.12,84.9,39,52,9.93
71,gwadar,PK,1584297705,62.33,25.12,73.38,70,100,1.74
72,meulaboh,ID,1584297705,96.13,4.14,85.08,70,60,0.76
73,lorengau,PG,1584297705,147.27,-2.02,83.28,75,100,12.33
74,hambantota,LK,1584297705,81.12,6.12,80.76,80,0,14.7
75,avarua,CK,1584297705,-159.78,-21.21,80.6,94,77,1.12
76,pacifica,US,1584297706,-122.49,37.61,53.6,71,75,11.41
77,makakilo city,US,1584297706,-158.09,21.35,78.8,100,75,4.7
78,hilo,US,1584297580,-155.09,19.73,73.4,73,90,4.7
79,inhambane,MZ,1584297706,35.38,-23.86,80.6,74,20,4.7
80,new norfolk,AU,1584297463,147.06,-42.78,53.6,71,90,1.12
81,cockburn town,TC,1584297706,-71.14,21.46,74.82,74,0,16.75
82,beberibe,BR,1584297707,-38.13,-4.18,86.0,70,75,9.17
83,umba,RU,1584297707,34.34,66.69,28.02,87,100,15.57
84,tuktoyaktuk,CA,1584297707,-133.04,69.45,-2.2,77,90,20.8
85,hearst,CA,1584297564,-83.67,49.68,18.66,80,45,0.74
86,korla,CN,1584297707,86.15,41.76,45.0,60,91,1.01
87,gambela,ET,1584297707,34.58,8.25,82.38,56,51,6.22
88,port hedland,AU,1584297707,118.57,-20.32,80.6,88,0,6.93
89,longyearbyen,SJ,1584297708,15.64,78.22,-5.8,63,40,4.7
90,westerly,US,1584297423,-71.83,41.38,51.01,19,1,8.05
91,syracuse,IT,1584297708,15.28,37.09,60.8,77,75,6.93
92,outjo,NA,1584297708,16.15,-20.12,71.6,73,41,6.31
93,chokurdakh,RU,1584297708,147.92,70.63,-22.2,71,0,4.07
94,bitag,PH,1584297708,121.85,17.9,66.9,94,96,2.75
95,luderitz,NA,1584297709,15.16,-26.65,71.6,60,0,17.22
96,madimba,TZ,1584297709,40.33,-10.4,82.02,77,95,2.91
97,henties bay,NA,1584297709,14.28,-22.12,62.01,92,0,1.01
98,busselton,AU,1584297705,115.33,-33.65,63.0,73,42,9.8
99,berlevag,NO,1584297709,29.09,70.86,26.6,49,20,8.05
100,usakos,NA,1584297710,15.6,-22.0,77.7,31,0,8.84
101,falam,MM,1584297710,93.68,22.92,58.44,51,6,1.66
102,asau,RO,1584297710,26.4,46.43,30.2,42,0,5.82
103,ribeira grande,PT,1584297710,-28.7,38.52,64.4,72,20,6.93
104,coahuayana,MX,1584297710,-103.68,18.73,77.0,83,40,5.86
105,lafia,NG,1584297711,8.52,8.48,93.0,10,24,4.52
106,port elizabeth,ZA,1584297456,25.57,-33.92,62.6,93,40,3.36
107,karratha,AU,1584297711,116.85,-20.74,83.82,81,7,17.78
108,labuhan,ID,1584297711,112.21,-6.88,76.08,91,52,2.73
109,armacao de pera,PT,1584297711,-8.36,37.1,64.0,82,40,11.41
110,thompson,CA,1584297711,-97.86,55.74,15.8,43,20,14.99
111,atuona,PF,1584297711,-139.03,-9.8,81.84,67,17,9.04
112,chuy,UY,1584297712,-53.46,-33.7,73.2,56,100,10.65
113,kodiak,US,1584297712,-152.41,57.79,21.2,79,1,6.93
114,norman wells,CA,1584297712,-126.83,65.28,17.6,61,75,18.34
115,bubaque,GW,1584297712,-15.83,11.28,81.84,63,100,18.28
116,salinopolis,BR,1584297712,-47.36,-0.61,78.24,87,100,5.82
117,dillon,US,1584297712,-79.37,34.42,60.01,81,90,8.05
118,arrecife,ES,1584297531,-13.55,28.96,69.8,60,20,16.11
119,clyde river,CA,1584297712,-68.59,70.47,-18.4,75,75,12.75
120,paamiut,GL,1584297712,-49.67,61.99,8.22,62,9,15.17
121,srednekolymsk,RU,1584297713,153.68,67.45,-22.02,97,57,3.91
122,coihaique,CL,1584297713,-72.07,-45.58,64.4,55,40,8.05
123,upernavik,GL,1584297713,-56.15,72.79,-18.6,74,0,3.8
124,tazovskiy,RU,1584297713,78.7,67.47,-5.1,89,100,6.73
125,egvekinot,RU,1584297713,-179.17,66.32,8.22,99,99,6.24
126,kempele,FI,1584297713,25.5,64.91,33.8,100,90,10.29
127,port alfred,ZA,1584297713,26.89,-33.59,63.0,98,90,16.08
128,leh,IN,1584297622,77.58,34.17,13.44,50,0,2.1
129,georgetown,MY,1584297714,100.34,5.41,80.6,88,20,2.24
130,vestmannaeyjar,IS,1584297714,-20.27,63.44,39.2,64,90,13.87
131,teahupoo,PF,1584297714,-149.27,-17.83,84.2,66,20,5.82
132,junction city,US,1584297714,-96.83,39.03,37.4,74,90,9.17
133,carnarvon,AU,1584297714,113.63,-24.87,77.0,83,90,11.41
134,barrow,US,1584297714,-156.79,71.29,-7.6,69,1,13.87
135,lasa,IT,1584297708,10.7,46.62,48.2,79,61,11.41
136,aripuana,BR,1584297715,-60.63,-9.17,80.04,79,100,3.2
137,matera,IT,1584297715,16.42,40.5,57.2,50,5,12.75
138,muli,MV,1584297715,73.57,2.92,84.54,69,18,6.26
139,tilichiki,RU,1584297715,166.1,60.47,8.76,94,98,7.27
140,torbay,CA,1584297715,-52.73,47.67,33.01,86,90,21.92
141,whitehorse,CA,1584297689,-135.05,60.72,23.0,65,20,5.82
142,lebu,CL,1584297715,-73.65,-37.62,67.98,40,0,10.67
143,anadyr,RU,1584297716,177.48,64.75,26.6,79,75,6.71
144,baykalsk,RU,1584297716,104.15,51.51,25.86,90,81,6.17
145,vao,NC,1584297716,167.48,-22.67,84.0,72,41,45.79
146,ugoofaaru,MV,1584297716,73.0,5.67,83.64,75,3,9.66
147,sandwick,GB,1584297716,-1.25,60.0,37.4,59,40,11.41
148,saint-philippe,RE,1584297716,55.77,-21.36,78.8,78,100,13.87
149,airai,TL,1584297716,125.41,-8.93,66.0,79,82,3.04
150,sayyan,YE,1584297717,44.32,15.17,60.6,57,51,1.21
151,yendi,GH,1584297717,-0.01,9.44,99.66,19,48,5.23
152,westport,US,1584297598,-73.36,41.14,53.01,27,1,8.05
153,adrar,MR,1584297717,-10.07,20.5,85.8,8,0,9.53
154,kovylkino,RU,1584297717,43.91,54.04,32.88,96,90,7.2
155,ramnicu sarat,RO,1584297717,27.05,45.38,32.0,39,40,13.87
156,bengkulu,ID,1584297685,102.27,-3.8,75.36,88,93,3.31
157,casper,US,1584297483,-106.31,42.87,46.0,70,20,4.7
158,sholapur,IN,1584297717,75.92,17.68,87.06,24,24,6.44
159,vanavara,RU,1584297718,102.28,60.34,30.72,89,100,14.32
160,mahibadhoo,MV,1584297718,72.97,3.78,83.46,70,5,8.77
161,guerrero negro,MX,1584297718,-114.06,27.98,64.2,61,0,14.07
162,omboue,GA,1584297718,9.26,-1.57,78.6,90,95,3.29
163,yulara,AU,1584297718,130.99,-25.24,75.2,18,0,6.93
164,bredasdorp,ZA,1584297718,20.04,-34.53,66.2,55,100,12.75
165,leningradskiy,RU,1584297718,178.42,69.38,14.7,70,98,12.35
166,waipawa,NZ,1584297718,175.52,-41.41,60.8,82,50,20.8
167,cabo san lucas,MX,1584297719,-109.91,22.89,79.0,60,75,3.36
168,batu gajah,MY,1584297719,101.04,4.47,77.0,94,20,1.92
169,sabang,ID,1584297719,95.32,5.89,84.18,79,100,13.98
170,yellowknife,CA,1584297720,-114.35,62.46,26.6,63,20,18.34
171,nelson bay,AU,1584297720,152.15,-32.72,63.0,100,75,10.29
172,nemuro,JP,1584297721,145.57,43.32,28.2,62,0,10.07
173,isangel,VU,1584297721,169.27,-19.55,82.38,83,100,29.3
174,buala,SB,1584297721,159.59,-8.14,80.04,85,100,8.68
175,santa isabel do rio negro,BR,1584297721,-65.02,-0.41,98.04,42,100,2.42
176,nachalovo,RU,1584297721,48.2,46.34,46.4,31,75,15.66
177,sinnamary,GF,1584297721,-52.95,5.38,80.58,72,83,11.39
178,cidreira,BR,1584297721,-50.21,-30.18,76.44,83,90,17.85
179,manbij,SY,1584297721,37.95,36.53,55.4,87,93,10.29
180,dikson,RU,1584297722,80.55,73.51,-6.72,98,100,3.13
181,barcelos,PT,1584297722,-8.62,41.54,50.0,71,40,12.75
182,bridgewater,CA,1584297722,-64.52,44.38,37.99,43,5,8.79
183,pocone,BR,1584297722,-56.62,-16.26,93.9,47,34,4.34
184,antofagasta,CL,1584297700,-70.4,-23.65,72.0,60,20,13.87
185,butaritari,KI,1584297722,172.79,3.07,83.64,81,0,17.92
186,sitka,US,1584297723,-135.33,57.05,33.8,80,1,3.15
187,san quintin,MX,1584297723,-115.95,30.48,62.22,66,6,9.84
188,ixtapa,MX,1584297723,-105.2,20.7,80.6,61,40,8.05
189,kutum,SD,1584297723,24.67,14.2,68.52,20,30,4.12
190,brejo,BR,1584297723,-42.75,-3.68,80.76,90,90,6.96
191,souillac,MU,1584297723,57.52,-20.52,77.0,83,40,5.01
192,severo-kurilsk,RU,1584297723,156.12,50.68,30.72,98,100,12.82
193,castro,BR,1584297724,-50.01,-24.79,84.9,42,3,4.85
194,cairns,AU,1584297569,145.77,-16.92,69.8,94,40,7.85
195,aklavik,CA,1584297724,-135.01,68.22,8.6,55,20,9.17
196,saskylakh,RU,1584297724,114.08,71.92,20.1,96,100,5.41
197,saint george,US,1584297724,-113.58,37.1,60.01,50,75,10.29
198,santa cruz del sur,CU,1584297724,-78.0,20.71,79.32,66,0,11.99
199,mabaruma,GY,1584297724,-59.78,8.2,90.3,47,100,5.28
200,benghazi,LY,1584297511,20.07,32.12,66.72,52,0,6.29
201,port blair,IN,1584297725,92.75,11.67,82.74,73,16,11.61
202,constitucion,CL,1584297725,-72.42,-35.33,66.54,47,0,11.92
203,villazon,BO,1584297725,-65.59,-22.09,64.92,46,77,9.73
204,santiago del estero,AR,1584297725,-64.26,-27.8,61.68,89,100,4.81
205,wichita falls,US,1584297725,-98.49,33.91,51.01,87,100,9.17
206,dongsheng,CN,1584297725,109.98,39.82,37.74,29,83,14.03
207,grand gaube,MU,1584297725,57.66,-20.01,77.0,83,40,9.75
208,erzin,TR,1584297725,36.2,36.96,62.6,100,75,5.82
209,tiradentes,BR,1584297726,-44.18,-21.11,75.0,75,94,3.0
210,nome,US,1584297474,-165.41,64.5,30.2,92,90,12.75
211,mackay,AU,1584297726,149.2,-21.15,73.0,88,90,5.82
212,carauari,BR,1584297726,-66.9,-4.88,93.0,53,95,2.66
213,klaksvik,FO,1584297726,-6.59,62.23,30.2,80,95,28.19
214,bambous virieux,MU,1584297726,57.76,-20.34,77.0,83,40,9.86
215,lubango,AO,1584297727,13.49,-14.92,63.48,89,77,4.29
216,vostok,RU,1584297727,135.88,46.49,4.8,96,85,4.12
217,svetlogorsk,BY,1584297727,29.73,52.63,30.0,58,0,7.54
218,vila franca do campo,PT,1584297727,-25.43,37.72,62.6,63,20,5.82
219,chernihiv,UA,1584297727,32.0,51.0,30.9,53,33,11.1
220,xichang,CN,1584297727,102.26,27.9,44.4,60,5,5.86
221,caravelas,BR,1584297727,-39.25,-17.71,80.94,75,100,7.54
222,noumea,NC,1584297687,166.46,-22.28,80.6,83,99,18.34
223,yar-sale,RU,1584297728,70.83,66.83,-6.18,81,78,5.93
224,ossora,RU,1584297728,163.07,59.24,10.56,77,100,8.46
225,south venice,US,1584297728,-82.42,27.05,87.8,69,20,9.17
226,poum,NC,1584297728,164.02,-20.23,82.74,78,100,23.26
227,uaua,BR,1584297728,-39.48,-9.84,89.04,38,97,9.44
228,ocos,GT,1584297728,-92.19,14.51,91.4,55,40,9.17
229,namibe,AO,1584297729,12.15,-15.2,75.54,87,56,11.07
230,kalmunai,LK,1584297729,81.82,7.42,82.38,79,22,12.57
231,erenhot,CN,1584297729,111.98,43.65,35.94,39,0,16.73
232,east london,ZA,1584297729,27.91,-33.02,68.0,88,20,8.05
233,dingle,PH,1584297729,122.67,11.0,71.4,86,18,9.31
234,hornepayne,CA,1584297729,-84.77,49.21,21.0,66,19,1.92
235,walvis bay,NA,1584297729,14.51,-22.96,66.2,77,5,6.93
236,kalabo,ZM,1584297729,22.68,-14.97,70.86,85,50,4.27
237,contai,IN,1584297730,87.75,21.78,76.62,62,58,6.55
238,krasnoselkup,RU,1584297730,82.47,65.7,-12.48,86,20,6.38
239,papara,BR,1584297730,-38.73,-3.98,86.0,70,75,9.17
240,kundiawa,PG,1584297731,144.97,-6.02,53.22,98,100,0.54
241,praia da vitoria,PT,1584297731,-27.07,38.73,60.8,77,40,3.53
242,mount isa,AU,1584297731,139.5,-20.73,75.2,31,0,10.29
243,puerto baquerizo moreno,EC,1584297731,-89.6,-0.9,84.2,74,40,4.7
244,waddan,LY,1584297731,16.14,29.16,75.36,14,0,10.07
245,baturaja,ID,1584297731,104.17,-4.13,74.28,97,100,0.96
246,komsomolskiy,UZ,1584297731,71.72,40.43,53.6,40,52,9.17
247,fortuna,US,1584297732,-124.16,40.6,48.0,75,20,10.29
248,kharp,RU,1584297732,65.81,66.8,-6.54,76,17,6.93
249,pevek,RU,1584297732,170.31,69.7,8.76,94,96,13.13
250,zhigansk,RU,1584297732,123.37,66.77,0.12,92,100,26.78
251,canakkale,TR,1584297732,26.83,40.08,48.2,81,75,27.51
252,aksarka,RU,1584297732,67.8,66.56,-6.18,78,63,4.34
253,ukholovo,RU,1584297732,40.49,53.79,27.0,55,100,5.99
254,masunga,BW,1584297732,27.45,-20.62,77.0,65,100,3.36
255,kaitangata,NZ,1584297733,169.85,-46.28,52.0,89,90,22.93
256,kiruna,SE,1584297664,20.23,67.86,24.8,92,75,1.12
257,olinda,BR,1584297733,-34.86,-8.01,84.2,70,40,10.29
258,port macquarie,AU,1584297733,152.92,-31.43,61.0,100,75,6.93
259,isabela,PH,1584297733,121.97,6.71,75.2,94,75,3.13
260,shrewsbury,GB,1584297733,-2.75,52.71,46.99,65,40,9.17
261,ahome,MX,1584297733,-109.18,25.92,69.8,56,90,16.11
262,mahon,ES,1584297734,4.27,39.89,55.4,76,0,8.05
263,kristiansund,NO,1584297669,7.73,63.11,37.4,59,75,25.28
264,ilulissat,GL,1584297734,-51.1,69.22,-5.8,39,20,10.29
265,novopskov,UA,1584297734,39.09,49.55,30.0,52,71,11.27
266,sibu,MY,1584297484,111.82,2.3,77.0,94,75,2.24
267,volkhov,RU,1584297734,32.34,59.93,28.99,32,15,10.69
268,la libertad,EC,1584297734,-80.9,-2.23,86.0,66,40,9.17
269,guaruja,BR,1584297531,-46.26,-23.99,89.6,45,20,9.17
270,aranos,NA,1584297735,19.12,-24.13,82.74,16,0,4.27
271,houma,US,1584297600,-90.72,29.6,82.99,50,1,5.82
272,padang,ID,1584297735,100.35,-0.95,69.6,92,72,5.35
273,chekhov,RU,1584297735,37.47,55.14,28.0,73,40,11.18
274,puerto ayora,EC,1584297735,-90.35,-0.74,86.0,70,20,11.41
275,yumen,CN,1584297735,97.2,40.28,35.4,23,100,7.92
276,avera,US,1584297736,-82.53,33.19,73.4,72,90,6.93
277,nhulunbuy,AU,1584297736,136.77,-12.23,75.2,88,0,4.7
278,progreso,MX,1584297736,-89.67,21.28,91.4,41,75,11.41
279,roald,NO,1584297736,6.13,62.58,37.4,74,75,24.16
280,esperance,AU,1584297736,121.9,-33.87,69.8,77,27,8.05
281,bada,RU,1584297736,109.87,51.39,21.0,92,59,5.57
282,puerto ayacucho,VE,1584297736,-67.62,5.66,97.5,34,67,4.23
283,kirakira,SB,1584297737,161.92,-10.45,76.62,92,100,8.23
284,anchorage,US,1584297736,-149.9,61.22,19.0,71,1,2.24
285,nalut,LY,1584297737,10.85,30.33,67.8,25,0,13.58
286,bull savanna,JM,1584297737,-77.59,17.89,83.28,46,0,6.87
287,pemangkat,ID,1584297737,108.97,1.17,76.98,93,53,7.36
288,lichinga,MZ,1584297737,35.24,-13.31,72.66,88,37,2.37
289,half moon bay,US,1584297737,-122.43,37.46,53.6,71,75,11.41
290,oranjemund,NA,1584297738,16.43,-28.55,63.66,80,0,20.83
291,salta,AR,1584297738,-65.41,-24.79,86.0,61,75,16.11
292,van buren,US,1584297738,-94.35,35.44,53.01,76,90,4.7
293,lastoursville,GA,1584297738,12.73,-0.81,75.36,93,88,3.96
294,aitape,PG,1584297738,142.35,-3.14,81.66,75,100,11.05
295,beloha,MG,1584297738,45.05,-25.17,72.48,87,18,12.62
296,ngunguru,NZ,1584297738,174.5,-35.62,59.0,92,100,7.0
297,zhicheng,CN,1584297738,111.5,30.3,57.0,79,88,1.45
298,griffith,US,1584297712,-87.42,41.53,43.0,55,1,11.41
299,abnub,EG,1584297739,31.15,27.27,71.94,44,0,6.91
300,raduzhnyy,RU,1584297739,77.47,62.1,25.32,97,98,4.85
301,storforshei,NO,1584297739,14.52,66.4,32.0,96,90,2.24
302,helena,US,1584297739,-112.04,46.59,7.0,60,90,4.7
303,ulagan,RU,1584297739,87.96,50.63,17.22,68,24,8.84
304,ulan-ude,RU,1584297739,107.61,51.83,30.2,86,62,2.24
305,huarmey,PE,1584297740,-78.15,-10.07,85.26,46,47,11.1
306,pierre,US,1584297574,-100.35,44.37,35.01,76,90,20.8
307,samarai,PG,1584297740,150.67,-10.62,75.18,84,98,4.05
308,kathu,TH,1584297740,98.33,7.92,84.2,66,20,10.29
309,kibala,TD,1584297740,18.35,9.11,86.52,11,55,2.13
310,imbituba,BR,1584297740,-48.67,-28.24,89.6,62,29,11.41
311,buraydah,SA,1584297740,43.98,26.33,66.2,59,0,9.17
312,alegrete,BR,1584297740,-55.79,-29.78,76.62,83,100,11.18
313,kulhudhuffushi,MV,1584297741,73.07,6.62,83.82,72,2,5.32
314,gayeri,BF,1584297741,0.49,12.65,94.26,8,54,7.02
315,lagoa,PT,1584297741,-27.98,39.05,58.62,70,0,3.98
316,pajapan,MX,1584297741,-94.7,18.25,82.4,78,75,13.87
317,arroyo,ES,1584297741,-4.8,41.61,57.0,62,20,13.87
318,nadym,RU,1584297741,72.52,65.53,-2.94,92,98,8.59
319,sao filipe,CV,1584297741,-24.5,14.9,72.84,69,0,20.51
320,blagoyevo,RU,1584297741,47.92,63.37,9.12,93,55,6.02
321,northam,GB,1584297742,-4.22,51.03,46.0,87,20,10.29
322,katsuura,JP,1584297742,140.3,35.13,42.8,81,99,9.17
323,barranca,PE,1584297742,-77.77,-10.75,73.92,88,85,12.06
324,songea,TZ,1584297742,35.65,-10.68,69.6,90,100,1.61
325,te anau,NZ,1584297742,167.72,-45.42,51.6,79,83,6.85
326,conway,US,1584297716,-92.44,35.09,50.0,81,90,13.87
327,ust-kuyga,RU,1584297742,135.6,70.02,-20.22,79,0,10.22
328,yevpatoriya,UA,1584297743,33.36,45.2,39.72,43,100,21.05
329,eirunepe,BR,1584297743,-69.87,-6.66,86.88,72,76,4.18
330,saint-denis,FR,1584297743,2.33,48.92,59.0,50,43,6.93
331,dicabisagan,PH,1584297743,122.42,17.08,73.02,88,98,10.83
332,mount darwin,ZW,1584297743,31.58,-16.77,68.7,90,99,3.02
333,trat,TH,1584297743,102.5,12.5,77.0,81,63,1.07
334,sept-iles,CA,1584297498,-66.38,50.2,21.2,62,90,14.99
335,yerofey pavlovich,RU,1584297743,121.97,53.97,8.58,89,79,1.45
336,kalasin,TH,1584297744,103.5,16.5,82.02,50,40,7.43
337,pisco,PE,1584297744,-76.22,-13.7,73.99,30,77,8.05
338,saint-augustin,CA,1584297744,-58.65,51.23,26.22,63,100,14.03
339,hami,CN,1584297744,93.45,42.8,38.46,25,18,2.59
340,bilma,NE,1584297744,12.92,18.69,68.88,11,0,1.41
341,cabedelo,BR,1584297744,-34.83,-6.98,77.0,94,90,10.29
342,tautira,PF,1584297744,-149.15,-17.73,84.2,66,20,5.82
343,baykit,RU,1584297745,96.37,61.67,26.76,90,99,7.29
344,kalyazin,RU,1584297745,37.84,57.24,26.76,67,59,8.66
345,college,US,1584297745,-147.8,64.86,27.0,92,90,1.3
346,richards bay,ZA,1584297745,32.04,-28.78,79.32,82,18,16.93
347,eskilstuna,SE,1584297745,16.51,59.37,46.0,75,100,17.22
348,resende,BR,1584297745,-44.45,-22.47,79.5,80,26,3.44
349,aldan,RU,1584297745,125.39,58.6,11.46,91,99,8.01
350,san cristobal,VE,1584297555,-72.22,7.77,80.6,61,75,8.05
351,sakakah,SA,1584297746,40.21,29.97,64.4,45,5,3.36
352,pahrump,US,1584297746,-115.98,36.21,64.0,47,1,13.87
353,kropotkin,RU,1584297746,40.58,45.44,40.26,41,100,10.27
354,abong mbang,CM,1584297746,13.18,3.98,80.4,25,35,1.54
355,faanui,PF,1584297746,-151.75,-16.48,82.56,77,4,13.94
356,kargasok,RU,1584297746,80.86,59.06,32.16,98,100,12.71
357,kisumu,KE,1584297747,34.76,-0.1,67.62,81,100,1.68
358,nakusp,CA,1584297747,-117.8,50.25,5.88,94,8,5.39
359,cayenne,GF,1584297747,-52.33,4.93,87.8,62,40,12.75
360,zhezkazgan,KZ,1584297747,67.71,47.8,36.66,74,100,2.95
361,bethel,US,1584297747,-73.41,41.37,52.0,20,1,11.41
362,harlingen,US,1584297588,-97.7,26.19,84.2,58,90,11.41
363,sibolga,ID,1584297747,98.78,1.74,72.12,94,100,3.76
364,ler,SS,1584297747,30.14,8.3,89.58,18,82,2.06
365,aykhal,RU,1584297747,111.5,66.0,23.0,79,100,6.71
366,killam,CA,1584297748,-111.85,52.78,1.99,67,18,1.99
367,kachug,RU,1584297748,105.88,53.96,22.98,91,53,6.08
368,camacupa,AO,1584297467,17.48,-12.02,66.18,94,100,2.46
369,marawi,PH,1584297748,124.29,8.0,72.0,80,16,4.0
370,fort nelson,CA,1584297748,-122.7,58.81,17.6,52,75,4.7
371,taltal,CL,1584297748,-70.48,-25.4,67.08,67,7,6.76
372,kargopol,RU,1584297748,38.95,61.51,20.46,83,0,8.34
373,muzhi,RU,1584297748,64.67,65.37,-3.12,99,74,3.53
374,rocha,UY,1584297749,-54.33,-34.48,70.32,55,98,11.07
375,oussouye,SN,1584297749,-16.55,12.48,95.0,65,55,11.41
376,kushmurun,KZ,1584297749,64.63,52.45,30.72,83,15,10.94
377,mogadishu,SO,1584297749,45.34,2.04,82.92,82,0,21.85
378,ormara,PK,1584297749,64.64,25.21,73.38,68,100,2.71
379,kashi,CN,1584297749,75.98,39.45,46.4,24,0,6.71
380,lavrentiya,RU,1584297749,-171.0,65.58,28.56,98,100,7.92
381,moose factory,CA,1584297750,-80.61,51.26,6.8,55,1,5.82
382,andenes,NO,1584297750,16.12,69.31,26.6,79,95,8.05
383,tazmalt,DZ,1584297750,4.4,36.39,59.0,87,40,3.36
384,sao sebastiao,BR,1584297750,-45.41,-23.76,78.42,86,0,10.67
385,benguela,AO,1584297569,13.41,-12.58,80.6,83,75,4.7
386,koutiala,ML,1584297750,-5.46,12.39,96.24,17,100,2.51
387,tottori,JP,1584297514,134.23,35.5,37.92,74,99,13.27
388,comodoro rivadavia,AR,1584297750,-67.5,-45.87,77.0,36,0,13.87
389,suntar,RU,1584297750,117.63,62.14,29.46,95,100,7.29
390,nikolayevka,RU,1584297751,47.2,53.13,27.66,87,89,9.17
391,along,IN,1584297751,94.77,28.17,60.6,90,83,3.04
392,fukue,JP,1584297751,128.84,32.69,42.8,56,75,25.28
393,orahovac,XK,1584297751,20.65,42.4,37.0,74,75,17.22
394,tocopilla,CL,1584297495,-70.2,-22.09,76.08,36,0,10.04
395,ponta do sol,PT,1584297751,-17.1,32.67,62.6,63,40,14.99
396,hurghada,EG,1584297502,33.81,27.26,69.8,73,0,8.9
397,octeville,FR,1584297752,-1.64,49.63,46.99,87,40,6.93
398,bentiu,SS,1584297752,29.83,9.23,87.42,18,2,2.82
399,natal,BR,1584297752,-35.21,-5.79,82.4,78,75,11.41
400,ketchikan,US,1584297752,-131.65,55.34,37.4,51,1,13.87
401,balkhash,KZ,1584297752,74.98,46.84,38.1,72,81,8.97
402,sladkovo,RU,1584297752,70.34,55.53,34.68,78,100,27.47
403,foam lake,CA,1584297752,-103.53,51.65,13.8,89,100,4.68
404,khazar,RU,1584297753,48.33,42.0,46.2,78,98,4.83
405,constanta,RO,1584297618,28.65,44.18,39.2,50,84,10.29
406,sabha,LY,1584297753,14.43,27.04,69.78,14,0,4.65
407,vila velha,BR,1584297753,-40.29,-20.33,86.0,66,20,12.75
408,beringovskiy,RU,1584297753,179.32,63.05,20.46,93,0,7.58
409,kalashnikovo,RU,1584297753,35.23,57.28,25.5,68,6,4.63
410,kamenka,RU,1584297753,42.77,51.32,24.01,88,100,18.32
411,puerto madryn,AR,1584297754,-65.04,-42.77,77.52,18,0,14.83
412,shelburne,CA,1584297754,-80.2,44.08,37.99,29,1,3.36
413,the valley,AI,1584297466,-63.06,18.22,82.4,54,20,9.17
414,mazatlan,MX,1584297597,-106.42,23.22,82.4,58,75,11.41
415,fenoarivo,MG,1584297754,47.44,-18.93,64.4,93,75,8.05
416,slave lake,CA,1584297754,-114.77,55.28,5.0,60,20,2.24
417,kuloy,RU,1584297754,42.49,61.03,19.56,85,0,4.27
418,udachnyy,RU,1584297754,112.4,66.42,23.0,79,100,6.71
419,mutata,CO,1584297754,-76.44,7.24,85.26,55,83,4.29
420,muroto,JP,1584297755,134.15,33.28,37.02,76,47,10.33
421,pinawa,CA,1584297755,-95.88,50.15,27.12,76,100,5.88
422,shetpe,KZ,1584297755,52.12,44.17,46.38,48,29,9.71
423,ouesso,CG,1584297755,16.05,1.61,80.04,63,100,2.93
424,palana,RU,1584297755,159.97,59.12,8.94,75,100,6.53
425,owando,CG,1584297755,15.9,-0.48,82.92,63,82,0.69
426,nanortalik,GL,1584297755,-45.24,60.14,24.78,73,100,15.64
427,eyl,SO,1584297756,49.82,7.98,79.68,81,0,13.29
428,acarau,BR,1584297680,-40.12,-2.89,83.64,81,57,6.38
429,ndele,CF,1584297756,20.65,8.41,85.8,18,37,2.53
430,neryungri,RU,1584297756,124.65,56.67,4.08,87,62,3.29
431,broome,US,1584297756,-75.83,42.25,44.01,25,1,16.11
432,maniitsoq,GL,1584297756,-52.9,65.42,5.34,61,0,16.53
433,husavik,IS,1584297756,-17.34,66.04,28.4,68,40,40.26
434,ismailia,EG,1584297756,32.27,30.6,69.6,50,51,6.6
435,talaya,RU,1584297757,152.75,61.38,-17.16,98,0,2.89
436,lompoc,US,1584297678,-120.46,34.64,59.0,62,90,19.46
437,chernyshevskiy,RU,1584297757,112.47,63.01,28.92,95,100,8.57
438,tuatapere,NZ,1584297757,167.68,-46.13,53.01,92,95,10.0
439,okha,RU,1584297757,142.95,53.57,-3.12,92,50,11.7
440,cochrane,CA,1584297709,-114.47,51.18,10.0,54,20,5.82
441,karacabey,TR,1584297757,28.4,40.22,44.6,81,75,36.91
442,mandalgovi,MN,1584297757,106.27,45.76,28.74,56,0,14.79
443,naze,JP,1584297758,129.48,28.37,60.8,51,0,21.92
444,mikhaylovskoye,RU,1584297758,79.72,51.82,36.66,85,100,17.02
445,guiratinga,BR,1584297758,-53.76,-16.35,92.1,50,9,1.97
446,svecha,RU,1584297758,47.52,58.28,17.94,92,35,6.02
447,baicheng,CN,1584297758,122.82,45.62,18.3,30,0,9.91
448,ovsyanka,RU,1584297758,92.55,55.96,39.2,60,40,6.71
449,giovinazzo,IT,1584297758,16.67,41.19,55.0,66,38,11.41
450,shitanjing,CN,1584297758,106.34,39.23,40.62,21,100,2.73
451,coolum beach,AU,1584297759,153.1,-26.53,69.01,73,93,3.0
452,tabuk,PH,1584297593,121.44,17.42,69.6,87,98,7.92
453,mastic beach,US,1584297665,-72.85,40.77,52.0,31,1,8.05
454,fujin,CN,1584297759,132.03,47.26,13.26,73,34,9.91
455,lakhdenpokhya,RU,1584297759,30.2,61.52,34.0,69,94,12.8
456,prince george,CA,1584297562,-122.75,53.92,15.01,55,1,2.24
457,oroville,US,1584297759,-121.56,39.51,51.01,76,90,11.41
458,varna,BG,1584297759,27.92,43.22,37.4,51,100,5.82
459,gravdal,NO,1584297760,13.5,68.12,32.0,63,20,5.82
460,sao joao da barra,BR,1584297760,-41.05,-21.64,86.0,58,8,16.11
461,hirado,JP,1584297760,129.55,33.36,42.8,56,75,25.28
462,emerald,AU,1584297760,148.17,-23.53,69.01,72,0,9.17
463,valparaiso,CL,1584297556,-71.63,-33.04,68.0,56,0,8.05
464,price,US,1584297760,-110.81,39.6,48.0,65,40,6.93
465,saldanha,ZA,1584297760,17.94,-33.01,65.64,70,83,26.06
466,chipinge,ZW,1584297760,32.62,-20.19,72.66,63,8,6.89
467,sikasso,ML,1584297761,-7.0,10.92,96.06,12,100,0.78
468,manyana,BW,1584297761,21.72,-23.4,77.88,34,45,2.75
469,kichmengskiy gorodok,RU,1584297761,45.79,59.98,18.3,90,96,3.33
470,corsicana,US,1584297761,-96.47,32.1,60.8,82,90,9.17
471,qasigiannguit,GL,1584297761,-51.19,68.82,-5.8,39,20,10.29
472,kenai,US,1584297761,-151.26,60.55,15.01,76,1,3.36
473,tommot,RU,1584297761,126.29,58.96,11.82,96,100,1.61
474,russell,US,1584297759,-85.2,32.35,82.0,56,75,4.7
475,saint anthony,US,1584297762,-93.22,45.02,39.0,55,75,8.05
476,nova olimpia,BR,1584297762,-57.29,-14.8,91.2,56,73,2.62
477,gergebil,RU,1584297762,47.07,42.5,46.4,75,90,2.24
478,santa cruz,BO,1584297762,-63.17,-17.8,96.8,44,75,11.41
479,alanya,TR,1584297762,32.0,36.54,59.0,93,75,1.12
480,kirksville,US,1584297742,-92.58,40.19,35.6,74,90,6.93
481,jesus carranza,MX,1584297762,-95.03,17.43,85.98,59,4,6.96
482,xinqing,CN,1584297763,129.5,48.23,7.68,97,85,3.83
483,thyboron,DK,1584297763,8.21,56.7,46.99,69,100,10.0
484,san patricio,MX,1584297763,-104.7,19.22,86.0,79,20,11.41
485,manta,EC,1584297763,-80.73,-0.95,84.2,79,20,6.93
486,kljuc,BA,1584297763,16.77,44.53,37.4,55,0,2.24
487,sydney,AU,1584297631,151.21,-33.87,62.6,93,75,14.99
488,ancud,CL,1584297764,-73.82,-41.87,66.2,55,20,11.41
489,boa vista,BR,1584297764,-60.67,2.82,93.2,44,75,6.93
490,shakiso,ET,1584297764,38.92,5.75,66.0,82,62,2.15
491,alugan,PH,1584297764,125.48,12.22,76.98,77,21,8.7
492,kembe,CF,1584297764,21.89,4.62,79.32,65,79,2.86
493,soyo,AO,1584297764,12.37,-6.13,84.2,89,75,5.82
494,srandakan,ID,1584297764,110.25,-7.94,75.9,85,100,3.94
495,tatawin,TN,1584297479,10.45,32.93,68.0,40,21,6.93
496,kungurtug,RU,1584297765,97.52,50.6,18.12,77,99,5.37
497,portland,US,1584297486,-122.68,45.52,43.0,48,40,24.16
498,grindavik,IS,1584297765,-22.43,63.84,35.6,69,90,27.51
499,ingleside,US,1584297706,-97.21,27.88,82.99,78,40,13.87
500,jiwani,PK,1584297765,61.74,25.05,73.2,70,97,3.18
501,langarud,IR,1584297765,50.15,37.2,55.4,82,84,1.79
502,yeppoon,AU,1584297765,150.73,-23.13,71.6,78,4,5.82
503,sao jose de ribamar,BR,1584297766,-44.05,-2.56,80.6,83,40,9.17
504,turukhansk,RU,1584297766,87.98,65.82,-9.96,97,96,5.3
505,priargunsk,RU,1584297766,119.1,50.37,0.48,95,68,5.19
506,nizwa,OM,1584297766,57.53,22.93,64.92,31,17,8.68
507,port-gentil,GA,1584297766,8.78,-0.72,84.2,83,40,9.17
508,shumikha,RU,1584297766,63.3,55.23,30.9,86,52,14.14
509,itaituba,BR,1584297766,-55.98,-4.28,84.2,74,75,5.53
510,fatsa,TR,1584297715,37.5,41.03,46.4,100,75,10.29
511,cabot,US,1584297767,-92.02,34.97,48.99,76,90,12.75
512,puro,PH,1584297767,123.38,12.48,75.9,76,0,5.19
513,korgen,NO,1584297767,13.82,66.08,32.0,97,90,2.24
514,lithakia,GR,1584297767,20.83,37.72,60.8,77,40,11.41
515,colares,PT,1584297767,-9.45,38.8,55.99,71,75,23.04
516,fomboni,KM,1584297767,43.74,-12.28,84.36,76,74,11.32
517,nador,MA,1584297648,-2.93,35.17,60.8,82,75,4.7
518,kapoeta,SS,1584297768,33.59,4.77,87.24,47,90,1.88
519,kangasala,FI,1584297768,24.08,61.46,37.4,80,90,20.8
520,deer lake,CA,1584297704,-57.43,49.17,32.0,81,75,8.05
521,rimini,IT,1584297768,12.52,44.02,51.8,49,0,1.12
522,dabola,GN,1584297768,-11.12,10.75,95.16,11,66,2.68
523,pocao de pedras,BR,1584297768,-44.85,-4.67,82.74,88,89,3.58
524,kenora,CA,1584297769,-94.43,49.82,26.6,45,90,8.05
525,kavaratti,IN,1584297769,72.64,10.57,83.1,69,1,7.18
526,krosno odrzanskie,PL,1584297769,15.1,52.05,46.4,36,83,6.93
527,kismayo,SO,1584297769,42.55,-0.36,82.92,80,58,13.51
528,khromtau,KZ,1584297769,58.43,50.25,26.94,91,7,3.96
529,hailey,US,1584297553,-114.32,43.52,35.6,93,90,4.7
530,banda aceh,ID,1584297769,95.32,5.56,75.72,93,100,5.26
531,labuan,MY,1584297769,115.24,5.28,80.6,83,75,8.05
532,dakar,SN,1584297743,-17.44,14.69,80.6,73,1,16.11
533,goderich,CA,1584297770,-81.72,43.75,39.99,45,0,4.0
534,kalmar,SE,1584297770,16.36,56.66,44.6,70,75,16.11
535,gardez,AF,1584297770,69.23,33.6,42.78,43,100,7.67
536,bonavista,CA,1584297770,-53.11,48.65,30.99,79,66,11.99
537,mombasa,KE,1584297770,39.66,-4.05,80.22,85,100,5.19
538,sobolevo,RU,1584297770,31.9,54.43,26.94,57,0,7.07
539,karakol,KG,1584297770,78.39,42.49,28.74,48,0,8.34
540,altar,MX,1584297770,-111.82,30.7,68.0,50,50,4.0
541,russi,IT,1584297771,12.03,44.37,51.8,49,0,1.12
542,shemysheyka,RU,1584297771,45.39,52.89,32.0,61,98,9.86
543,alofi,NU,1584297771,-169.92,-19.06,75.2,94,100,1.12
544,kruisfontein,ZA,1584297771,24.73,-34.0,60.96,90,100,6.53
545,nokaneng,BW,1584297771,22.27,-19.67,78.96,58,56,6.22
546,lake city,US,1584297771,-82.64,30.19,90.0,39,40,3.36
547,tomatlan,MX,1584297771,-105.25,19.93,91.02,39,74,5.59
548,adre,TD,1584297771,22.2,13.47,80.94,13,11,9.01
549,sfantu gheorghe,RO,1584297771,25.78,45.87,33.01,48,13,4.23
550,cabo rojo,PR,1584297772,-67.15,18.09,87.01,56,40,17.22
551,mount gambier,AU,1584297772,140.77,-37.83,44.6,93,0,5.82
552,dulce nombre,HN,1584297772,-88.83,14.85,76.08,67,62,5.37
553,rawson,AR,1584297772,-65.1,-43.3,65.64,51,17,15.5
554,loding,NO,1584297772,14.75,67.3,30.2,92,90,2.24
555,marsh harbour,BS,1584297772,-77.06,26.54,73.38,69,0,8.7
556,nsanje,MW,1584297772,35.26,-16.92,76.08,81,0,5.88
557,touho,NC,1584297773,165.23,-20.78,73.02,94,100,8.3
558,newtownards,GB,1584297773,-5.69,54.59,44.6,70,1,9.17
559,linxia,CN,1584297543,103.21,35.6,26.22,90,100,4.05
560,molagavita,CO,1584297773,-72.81,6.67,78.8,83,40,6.93
561,ostrov,RU,1584297773,28.35,57.34,32.0,71,0,6.71
562,masterton,NZ,1584297774,175.66,-40.96,61.0,78,50,4.12
563,manicore,BR,1584297774,-61.3,-5.81,87.8,70,20,2.24
564,catmondaan,PH,1584297774,124.01,10.69,78.8,78,40,6.93
565,krasnyy luch,UA,1584297774,38.94,48.14,30.18,40,81,8.66
566,mairana,BO,1584297774,-63.93,-18.12,78.06,56,26,5.39
