City_ID,City,Country,Date,Longitude,Latitude,Max Temperature,Humidity,Cloudiness,Wind speed
0,cape town,ZA,1584217443,18.42,-33.93,69.01,88,20,18.34
1,albany,US,1584217481,-73.97,42.6,46.0,48,40,18.34
2,konstancin-jeziorna,PL,1584217481,21.12,52.09,33.01,54,0,4.7
3,barrow,US,1584217481,-156.79,71.29,12.2,92,90,34.45
4,qaanaaq,GL,1584217482,-69.36,77.48,-20.25,61,0,5.26
5,port elizabeth,ZA,1584217482,25.57,-33.92,66.2,88,20,12.75
6,strezhevoy,RU,1584217482,77.59,60.73,33.8,97,90,8.95
7,saldanha,ZA,1584217456,17.94,-33.01,64.4,88,0,9.17
8,bredasdorp,ZA,1584217450,20.04,-34.53,68.0,72,67,8.05
9,bengkulu,ID,1584217482,102.27,-3.8,74.61,91,95,3.27
10,la primavera,CO,1584217482,-70.41,5.49,98.19,30,90,5.82
11,kupino,RU,1584217482,77.3,54.37,34.65,94,100,16.46
12,port alfred,ZA,1584217297,26.89,-33.59,68.0,88,92,3.0
13,jamestown,US,1584217297,-79.24,42.1,39.99,59,1,6.93
14,cayenne,GF,1584217329,-52.33,4.93,86.0,62,90,11.41
15,beloha,MG,1584217354,45.05,-25.17,73.35,82,100,11.41
16,hermanus,ZA,1584217296,19.23,-34.42,64.99,88,53,13.4
17,klaksvik,FO,1584217483,-6.59,62.23,35.6,74,100,11.41
18,vaini,TO,1584217483,-175.2,-21.2,82.4,83,75,13.87
19,roma,US,1584217265,-75.46,43.21,39.99,64,90,10.29
20,bethel,US,1584217483,-73.41,41.37,55.4,34,1,10.29
21,labuan,MY,1584217452,115.24,5.28,78.8,100,75,1.12
22,jiayuguan,CN,1584217484,98.3,39.82,35.73,26,100,8.72
23,inhambane,MZ,1584217484,35.38,-23.86,78.21,81,0,8.28
24,georgetown,MY,1584217454,100.34,5.41,84.2,88,20,3.62
25,avarua,CK,1584217484,-159.78,-21.21,84.2,74,37,6.93
26,rikitea,PF,1584217484,-134.97,-23.12,77.67,80,0,13.69
27,mandurah,AU,1584217484,115.7,-32.55,69.8,100,90,6.93
28,xinpu,CN,1584217484,119.16,34.6,40.77,52,0,6.42
29,ligayan,PH,1584217485,119.47,4.65,81.99,71,5,8.66
30,kanepi,EE,1584217485,26.76,57.98,27.0,68,19,9.17
31,punta arenas,CL,1584217445,-70.92,-53.15,59.0,58,75,20.8
32,saint-philippe,RE,1584217299,55.77,-21.36,78.8,83,40,13.87
33,mecca,SA,1584217485,39.83,21.43,66.33,54,0,2.77
34,mataura,NZ,1584217447,168.86,-46.19,54.0,84,100,3.0
35,irituia,BR,1584217485,-47.44,-1.77,80.19,84,98,5.3
36,hasaki,JP,1584217485,140.83,35.73,33.8,100,75,4.7
37,sao joaquim,BR,1584217486,-49.93,-28.29,73.89,57,0,2.28
38,magburaka,SL,1584217486,-11.95,8.72,83.25,58,91,6.98
39,tasiilaq,GL,1584217486,-37.64,65.61,5.0,65,20,1.12
40,nemuro,JP,1584217486,145.57,43.32,30.51,71,100,14.34
41,hobart,AU,1584217305,147.33,-42.88,53.01,81,75,5.82
42,hithadhoo,MV,1584217486,73.08,-0.6,83.07,64,85,4.07
43,aswan,EG,1584217240,32.91,24.09,75.2,17,0,13.87
44,lulea,SE,1584217487,22.15,65.58,26.6,63,100,6.93
45,chulman,RU,1584217487,124.91,56.85,-22.77,100,95,1.59
46,iquique,CL,1584217487,-70.14,-20.22,77.0,57,0,18.34
47,iralaya,HN,1584217487,-83.23,15.0,84.2,74,40,9.17
48,nayudupeta,IN,1584217487,79.9,13.9,73.53,86,0,2.89
49,tadine,NC,1584217487,167.88,-21.55,81.45,83,100,18.25
50,longyearbyen,SJ,1584217453,15.64,78.22,-0.4,54,40,16.11
51,grootfontein,NA,1584217487,18.12,-19.57,69.21,61,51,4.72
52,peleduy,RU,1584217488,112.74,59.63,21.51,94,100,10.94
53,new norfolk,AU,1584217251,147.06,-42.78,53.01,81,75,5.82
54,ushuaia,AR,1584217299,-68.3,-54.8,55.4,47,20,6.93
55,kara-tyube,RU,1584217488,45.44,44.63,57.51,71,99,12.68
56,ndele,CF,1584217488,20.65,8.41,79.83,11,11,3.18
57,east london,ZA,1584217295,27.91,-33.02,73.89,78,51,8.93
58,necochea,AR,1584217488,-58.74,-38.55,69.01,74,0,10.0
59,mar del plata,AR,1584217488,-57.56,-38.0,71.01,64,0,12.75
60,zhigansk,RU,1584217489,123.37,66.77,-5.85,95,100,21.77
61,nador,MA,1584217489,-2.93,35.17,62.6,77,90,3.36
62,gongzhuling,CN,1584217268,124.82,43.5,21.51,78,92,16.33
63,tiarei,PF,1584217489,-149.33,-17.53,87.8,66,20,5.82
64,ponta do sol,PT,1584217489,-17.1,32.67,60.8,63,75,11.41
65,zaliztsi,UA,1584217489,25.37,49.79,29.25,66,92,12.66
66,puerto ayora,EC,1584217462,-90.35,-0.74,86.0,70,20,11.41
67,tuktoyaktuk,CA,1584217489,-133.04,69.45,21.2,85,90,26.4
68,dikson,RU,1584217477,80.55,73.51,-15.75,99,57,11.54
69,simao,CN,1584217490,100.97,22.79,61.47,43,5,1.99
70,beringovskiy,RU,1584217490,179.32,63.05,15.39,87,0,6.89
71,antipovka,RU,1584217264,45.31,49.83,37.71,78,52,7.81
72,savannah bight,HN,1584217490,-85.85,16.45,80.19,77,0,17.07
73,de-kastri,RU,1584217490,140.78,51.47,14.31,91,100,9.82
74,simi valley,US,1584217323,-118.78,34.27,61.0,87,90,5.82
75,hambantota,LK,1584217345,81.12,6.12,78.93,78,20,16.26
76,kodiak,US,1584217490,-152.41,57.79,33.8,59,1,5.82
77,norman wells,CA,1584217313,-126.83,65.28,14.0,66,75,5.82
78,yellowknife,CA,1584217296,-114.35,62.46,5.0,54,75,12.75
79,calabozo,VE,1584217491,-67.43,8.92,100.89,21,7,4.47
80,aklavik,CA,1584217322,-135.01,68.22,24.8,58,90,4.18
81,sitka,US,1584217305,-135.33,57.05,37.4,59,1,4.38
82,kavaratti,IN,1584217491,72.64,10.57,82.35,69,0,9.62
83,busselton,AU,1584217297,115.33,-33.65,66.0,98,98,10.11
84,kilindoni,TZ,1584217491,39.67,-7.91,84.69,78,81,9.95
85,yar-sale,RU,1584217315,70.83,66.83,2.43,89,98,16.73
86,atuona,PF,1584217306,-139.03,-9.8,81.45,78,12,12.86
87,san cristobal,VE,1584217492,-72.22,7.77,84.2,62,75,9.17
88,okha,RU,1584217492,142.95,53.57,-2.07,96,89,3.09
89,pyapon,MM,1584217492,95.68,16.28,70.29,92,34,4.05
90,ilulissat,GL,1584217492,-51.1,69.22,3.2,71,75,9.17
91,arraial do cabo,BR,1584217358,-42.03,-22.97,80.6,83,40,11.41
92,altamira,BR,1584217492,-52.21,-3.2,86.0,70,20,2.24
93,sukumo,JP,1584217492,132.73,32.93,47.43,55,4,21.85
94,sabang,ID,1584217492,95.32,5.89,84.51,73,1,8.25
95,kapaa,US,1584217493,-159.32,22.08,75.2,60,1,9.17
96,thompson,CA,1584217288,-97.86,55.74,5.0,45,20,3.36
97,kudahuvadhoo,MV,1584217493,72.89,2.67,84.33,66,76,7.02
98,atbasar,KZ,1584217493,68.33,51.8,33.93,98,100,12.15
99,katsuura,JP,1584217489,140.3,35.13,42.8,75,40,9.17
100,muros,ES,1584217493,-9.06,42.78,55.99,81,7,3.36
101,tabou,CI,1584217493,-7.35,4.42,77.67,93,67,3.02
102,lompoc,US,1584217493,-120.46,34.64,59.0,67,75,9.17
103,nikolskoye,RU,1584217306,30.79,59.7,26.6,38,97,22.37
104,valparaiso,CL,1584217481,-71.63,-33.04,78.8,39,0,12.75
105,vitim,RU,1584217494,112.56,59.45,21.51,94,100,10.94
106,uyovu,TZ,1584217494,31.53,-3.28,65.25,93,42,1.9
107,bambous virieux,MU,1584217323,57.76,-20.34,77.0,94,75,3.36
108,tavda,RU,1584217494,65.27,58.04,32.13,90,50,8.75
109,abnub,EG,1584217410,31.15,27.27,64.4,52,0,11.41
110,naze,JP,1584217495,129.48,28.37,59.0,51,54,19.46
111,ribeira grande,PT,1584217495,-28.7,38.52,62.6,72,40,12.75
112,yumen,CN,1584217495,97.2,40.28,35.37,26,100,12.53
113,iqaluit,CA,1584217463,-68.51,63.75,-14.01,62,20,14.99
114,portland,US,1584217295,-122.68,45.52,41.0,69,75,20.8
115,narsaq,GL,1584217404,-46.05,60.92,23.0,67,75,4.38
116,pitimbu,BR,1584217495,-34.81,-7.47,84.2,74,40,10.29
117,kaka,TM,1584217496,59.61,37.35,62.37,40,98,6.76
118,rawson,AR,1584217468,-65.1,-43.3,61.65,64,0,12.82
119,sorong,ID,1584217389,131.25,-0.88,72.99,98,100,1.36
120,nola,IT,1584217496,14.53,40.92,57.2,87,40,2.24
121,joao pinheiro,BR,1584217289,-46.17,-17.74,75.15,89,0,4.47
122,verkhoyansk,RU,1584217496,133.38,67.54,-32.31,97,10,1.92
123,moron,AR,1584217230,-58.62,-34.65,71.6,94,75,9.17
124,seoul,KR,1584217198,126.98,37.57,39.2,56,0,2.24
125,marsh harbour,BS,1584217497,-77.06,26.54,74.97,76,5,10.25
126,hilo,US,1584217207,-155.09,19.73,75.2,83,90,3.36
127,alta floresta,BR,1584217497,-56.09,-9.88,89.6,66,20,3.36
128,pevek,RU,1584217290,170.31,69.7,-10.89,76,54,9.19
129,saskylakh,RU,1584217497,114.08,71.92,1.35,95,95,10.71
130,leningradskiy,RU,1584217357,178.42,69.38,-6.21,72,29,6.96
131,sur,OM,1584217497,59.53,22.57,68.67,32,100,6.17
132,tiksi,RU,1584217445,128.87,71.69,-16.11,80,0,8.46
133,aleksandrovskiy zavod,RU,1584217497,117.94,50.92,-4.95,79,0,2.35
134,qaracala,AZ,1584217498,48.95,39.81,58.05,57,63,4.83
135,vodnany,CZ,1584217498,14.18,49.15,37.99,67,100,1.25
136,cururupu,BR,1584217498,-44.87,-1.83,78.39,93,100,3.02
137,labuhan,ID,1584217498,112.21,-6.88,75.69,92,89,2.42
138,polunochnoye,RU,1584217498,60.42,60.87,26.19,89,0,5.37
139,levelland,US,1584217498,-102.38,33.59,69.01,59,40,5.82
140,provideniya,RU,1584217498,-173.3,64.38,19.89,81,100,5.12
141,vanimo,PG,1584217498,141.3,-2.67,81.09,82,100,17.98
142,prince rupert,CA,1584217284,-130.32,54.32,33.8,26,1,6.93
143,bougouni,ML,1584217499,-7.48,11.42,83.61,10,32,4.16
144,benghazi,LY,1584217499,20.07,32.12,62.55,73,33,2.21
145,kruisfontein,ZA,1584217296,24.73,-34.0,62.19,93,42,7.58
146,salalah,OM,1584217499,54.09,17.02,77.0,61,75,8.05
147,kaitangata,NZ,1584217499,169.85,-46.28,57.99,77,100,16.71
148,esil,KZ,1584217499,66.4,51.96,33.21,97,100,15.55
149,axim,GH,1584217499,-2.24,4.87,79.47,88,100,2.82
150,cherskiy,RU,1584217500,161.3,68.75,-8.73,82,100,3.13
151,manggar,ID,1584217500,108.27,-2.88,81.99,72,100,2.62
152,kaeo,NZ,1584217322,173.78,-35.1,63.0,100,1,11.48
153,chuy,UY,1584217500,-53.46,-33.7,74.07,86,60,16.78
154,rach gia,VN,1584217245,105.08,10.02,75.2,100,100,4.7
155,bluff,NZ,1584217500,168.33,-46.6,54.0,84,100,3.0
156,methoni,GR,1584217500,21.7,36.82,61.0,87,100,3.36
157,cardston,CA,1584217501,-113.3,49.2,1.4,70,90,20.8
158,jozefow,PL,1584217501,21.24,52.14,33.01,54,0,4.7
159,emba,KZ,1584217501,58.14,48.83,36.45,87,100,11.05
160,castro,BR,1584217310,-50.01,-24.79,73.17,59,0,2.06
161,kapit,MY,1584217502,112.93,2.02,72.81,99,100,0.38
162,kendari,ID,1584217502,122.5,-3.94,74.07,97,100,1.32
163,alofi,NU,1584217502,-169.92,-19.06,82.4,83,75,6.93
164,olafsvik,IS,1584217309,-23.71,64.89,26.19,70,63,12.1
165,port hedland,AU,1584217502,118.57,-20.32,78.8,83,7,10.29
166,bannu,PK,1584217502,70.6,32.99,56.61,57,0,1.43
167,minsk,BY,1584217502,27.57,53.9,24.8,79,76,15.66
168,coos bay,US,1584217502,-124.22,43.37,45.0,86,90,9.17
169,tando muhammad khan,PK,1584217503,68.54,25.12,64.53,30,97,4.99
170,carnarvon,AU,1584217332,113.63,-24.87,77.0,83,75,9.17
171,chapleau,CA,1584217503,-83.4,47.84,26.6,49,40,10.29
172,mahebourg,MU,1584217295,57.7,-20.41,77.0,94,75,3.36
173,soyo,AO,1584217504,12.37,-6.13,84.2,83,75,5.82
174,iskateley,RU,1584217504,53.15,67.68,1.17,86,19,3.74
175,adrar,MR,1584217317,-10.07,20.5,70.47,8,0,3.89
176,jagodina,RS,1584217504,21.26,43.98,46.4,65,75,3.36
177,touros,BR,1584217504,-35.46,-5.2,82.4,74,40,9.17
178,flin flon,CA,1584217307,-101.86,54.77,8.6,50,90,4.7
179,coquimbo,CL,1584217505,-71.34,-29.95,66.2,77,20,14.99
180,angoche,MZ,1584217505,39.91,-16.23,73.71,95,46,4.47
181,netanya,IL,1584217303,34.86,32.33,62.6,93,40,5.82
182,curaca,BR,1584217505,-39.91,-8.99,84.51,52,74,9.6
183,erenhot,CN,1584217505,111.98,43.65,31.59,57,0,8.14
184,komsomolskiy,UZ,1584217505,71.72,40.43,48.2,70,0,6.93
185,hof,DE,1584217505,11.92,50.32,37.99,100,1,8.79
186,cabo san lucas,MX,1584217409,-109.91,22.89,82.4,42,20,19.46
187,sabzevar,IR,1584217506,57.68,36.21,64.53,18,100,28.74
188,avera,US,1584217506,-82.53,33.19,82.99,44,1,3.36
189,perth,AU,1584217456,115.83,-31.93,69.8,100,40,4.7
190,meshchovsk,RU,1584217506,35.28,54.32,25.29,67,100,21.81
191,wuwei,CN,1584217506,102.64,37.93,31.23,36,82,4.34
192,vila velha,BR,1584217506,-40.29,-20.33,84.0,74,40,9.17
193,port hardy,CA,1584217210,-127.42,50.7,35.6,34,5,18.34
194,severo-kurilsk,RU,1584217507,156.12,50.68,12.87,81,0,4.76
195,isangel,VU,1584217217,169.27,-19.55,82.4,83,90,4.7
196,ayagoz,KZ,1584217507,80.44,47.97,25.83,66,14,2.3
197,nuuk,GL,1584217507,-51.72,64.18,8.6,55,20,13.87
198,alugan,PH,1584217507,125.48,12.22,76.05,73,90,4.97
199,butaritari,KI,1584217461,172.79,3.07,83.61,70,100,9.13
200,clyde river,CA,1584217369,-68.59,70.47,-16.6,62,20,1.07
201,gimbi,ET,1584217507,35.83,9.17,71.73,48,95,3.44
202,marquette,US,1584217507,-87.63,46.53,28.0,79,90,12.75
203,ndjole,GA,1584217508,10.76,-0.18,74.25,96,71,3.04
204,torbay,CA,1584217387,-52.73,47.67,39.0,81,75,23.04
205,lebu,CL,1584217311,-73.65,-37.62,62.73,55,0,13.42
206,kandrian,PG,1584217508,149.55,-6.22,78.21,85,100,9.62
207,farah,AF,1584217508,62.5,32.5,62.19,26,100,2.89
208,kavieng,PG,1584217312,150.8,-2.57,84.15,72,100,9.84
209,chicama,PE,1584217508,-79.15,-7.84,77.0,78,20,8.05
210,vostok,RU,1584217508,135.88,46.49,7.65,96,100,2.06
211,taber,CA,1584217509,-112.15,49.82,1.4,70,90,20.8
212,padang,ID,1584217509,100.35,-0.95,68.31,93,83,4.54
213,ambalavao,MG,1584217364,46.93,-21.83,64.17,98,99,4.47
214,kibre mengist,ET,1584217509,38.98,5.88,67.23,70,99,2.24
215,meulaboh,ID,1584217324,96.13,4.14,83.43,73,100,7.02
216,tuy hoa,VN,1584217509,109.3,13.08,78.21,83,100,10.07
217,geraldton,AU,1584217492,114.6,-28.77,73.4,88,40,11.41
218,kununurra,AU,1584217509,128.73,-15.77,75.2,94,0,3.36
219,bara,NG,1584217509,10.73,10.37,71.19,16,0,6.78
220,changji,CN,1584217510,87.32,44.02,35.6,64,26,2.24
221,vila franca do campo,PT,1584217510,-25.43,37.72,60.8,72,20,12.75
222,cabot,US,1584217345,-92.02,34.97,50.0,100,90,9.17
223,pakxan,LA,1584217510,103.66,18.38,72.45,77,42,4.76
224,airai,TL,1584217510,125.41,-8.93,63.99,83,18,2.91
225,tyubuk,RU,1584217510,60.94,56.06,31.41,91,100,6.33
226,pangody,RU,1584217510,74.49,65.85,12.69,93,100,17.13
227,pisco,PE,1584217451,-76.22,-13.7,77.0,30,100,19.46
228,mayumba,GA,1584217226,10.66,-3.43,83.79,82,100,5.75
229,wernigerode,DE,1584217511,10.78,51.83,41.0,80,0,9.69
230,hamilton,US,1584217261,-84.53,39.18,39.99,86,90,11.41
231,manyana,BW,1584217511,21.72,-23.4,73.17,49,0,7.47
232,brigantine,US,1584217511,-74.36,39.41,59.0,26,1,16.11
233,biak,ID,1584217434,122.88,-0.91,81.63,70,70,7.2
234,ostrovnoy,RU,1584217511,39.51,68.05,10.89,94,100,13.11
235,abbeville,FR,1584217511,1.83,50.1,48.2,100,40,5.82
236,luderitz,NA,1584217337,15.16,-26.65,68.0,77,0,16.11
237,luau,AO,1584217512,22.22,-10.71,67.05,97,100,1.34
238,luena,AO,1584217512,19.92,-11.78,62.73,96,83,1.21
239,khatanga,RU,1584217512,102.5,71.97,25.29,88,100,12.8
240,roald,NO,1584217297,6.13,62.58,39.2,60,100,20.8
241,lahij,YE,1584217512,44.58,13.17,73.17,69,0,7.56
242,prichard,US,1584217512,-88.08,30.74,82.99,44,75,12.75
243,wajir,KE,1584217512,40.06,1.75,86.85,51,87,23.35
244,svetlaya,RU,1584217513,138.33,46.54,25.47,69,79,12.95
245,imeni poliny osipenko,RU,1584217513,136.49,52.42,-1.53,91,0,4.38
246,mount gambier,AU,1584217513,140.77,-37.83,53.6,76,90,8.05
247,vanino,RU,1584217513,140.25,49.09,18.63,81,69,9.71
248,souillac,MU,1584217513,57.52,-20.52,77.0,94,75,3.36
249,korla,CN,1584217513,86.15,41.76,39.0,60,100,1.01
250,polyarnyy,RU,1584217513,33.45,69.2,-2.2,84,0,7.09
251,xichang,CN,1584217478,102.26,27.9,37.17,90,63,3.0
252,shakawe,BW,1584217514,21.85,-18.37,69.93,85,85,0.51
253,silver city,US,1584217514,-108.28,32.77,61.0,41,90,8.05
254,mackay,AU,1584217514,149.2,-21.15,79.0,93,78,5.82
255,rosetown,CA,1584217514,-108.0,51.55,17.01,66,100,18.99
256,ambatofinandrahana,MG,1584217514,46.8,-20.55,63.63,88,100,4.12
257,talnakh,RU,1584217369,88.4,69.49,30.2,100,75,22.37
258,sarangani,PH,1584217514,125.46,5.4,80.01,71,81,4.63
259,mathathane,BW,1584217514,28.75,-22.27,82.53,36,78,6.6
260,villablino,ES,1584217515,-6.32,42.94,51.01,74,52,1.12
261,lagoa,PT,1584217501,-27.98,39.05,59.85,78,27,9.8
262,saint-joseph,RE,1584217515,55.62,-21.37,78.8,83,40,13.87
263,san rafael,AR,1584217429,-68.33,-34.62,71.01,19,0,7.7
264,te anau,NZ,1584217515,167.72,-45.42,51.03,69,100,2.48
265,chiredzi,ZW,1584217515,31.67,-21.05,74.97,53,33,3.13
266,lasa,IT,1584217447,10.7,46.62,39.99,93,40,3.36
267,caravelas,BR,1584217515,-39.25,-17.71,80.55,79,97,11.88
268,wanning,CN,1584217516,110.4,18.8,72.09,95,100,6.85
269,sarichioi,RO,1584217516,28.85,44.95,48.2,61,98,6.93
270,dalmeny,CA,1584217516,-106.77,52.33,10.99,60,75,18.34
271,sao filipe,CV,1584217516,-24.5,14.9,75.15,51,27,15.95
272,dongsheng,CN,1584217516,109.98,39.82,31.59,37,0,12.01
273,hualmay,PE,1584217516,-77.61,-11.1,78.21,62,100,9.22
274,aykhal,RU,1584217516,111.5,66.0,15.8,92,70,6.71
275,duyun,CN,1584217516,107.52,26.27,49.77,75,98,0.51
276,isoka,ZM,1584217506,32.63,-10.16,64.71,96,100,0.56
277,taltal,CL,1584217517,-70.48,-25.4,69.03,68,0,7.58
278,sioux lookout,CA,1584217385,-91.92,50.1,21.2,34,20,9.17
279,ngunguru,NZ,1584217517,174.5,-35.62,62.01,87,0,5.01
280,ahipara,NZ,1584217413,173.17,-35.17,63.0,100,0,3.29
281,nanortalik,GL,1584217517,-45.24,60.14,20.97,72,100,9.06
282,vao,NC,1584217517,167.48,-22.67,83.25,82,100,21.39
283,kikwit,CD,1584217517,18.82,-5.04,72.27,95,100,2.19
284,tessalit,ML,1584217517,1.01,20.2,77.31,11,72,9.6
285,abha,SA,1584217518,42.51,18.22,60.8,82,5,11.41
286,constitucion,CL,1584217518,-72.42,-35.33,65.79,50,67,12.33
287,klyuchi,RU,1584217518,79.17,52.27,34.11,86,100,14.16
288,luorong,CN,1584217518,109.61,24.41,59.31,63,100,4.74
289,hearst,CA,1584217518,-83.67,49.68,19.17,85,0,8.55
290,qaqortoq,GL,1584217518,-46.03,60.72,23.0,67,75,5.93
291,orthez,FR,1584217518,-0.77,43.49,50.0,76,0,5.82
292,hirado,JP,1584217519,129.55,33.36,50.0,46,59,18.34
293,motygino,RU,1584217519,94.76,58.18,26.73,95,34,7.61
294,njombe,TZ,1584217519,34.77,-9.33,60.21,96,98,2.64
295,victoria,HK,1584217300,114.16,22.29,69.01,56,20,9.17
296,lumberton,US,1584217519,-79.01,34.62,71.6,30,1,3.36
297,pacific grove,US,1584217519,-121.92,36.62,60.8,59,75,13.87
298,willowmore,ZA,1584217519,23.49,-33.29,59.31,83,42,4.76
299,yulara,AU,1584217519,130.99,-25.24,77.0,29,0,13.87
300,fortuna,US,1584217322,-124.16,40.6,50.0,81,75,8.05
301,paraopeba,BR,1584217520,-44.4,-19.28,82.4,57,40,11.41
302,miraflores,MX,1584217520,-98.81,19.22,89.6,18,20,3.36
303,akdepe,TM,1584217520,59.38,42.06,53.6,50,100,11.41
304,dolores,AR,1584217358,-57.68,-36.31,81.63,24,35,11.92
305,sao joao da barra,BR,1584217520,-41.05,-21.64,84.2,70,20,9.17
306,hofn,IS,1584217382,-15.21,64.25,31.77,66,100,22.03
307,kasongo-lunda,CD,1584217520,16.82,-6.47,70.11,96,100,2.46
308,ithaki,GR,1584217521,20.72,38.36,60.01,87,39,5.39
309,faanui,PF,1584217302,-151.75,-16.48,83.07,77,2,15.75
310,sa kaeo,TH,1584217521,102.07,13.81,80.19,80,100,5.68
311,joshimath,IN,1584217521,79.57,30.57,29.43,55,100,6.82
312,westport,US,1584217348,-73.36,41.14,55.99,28,1,14.99
313,sorland,NO,1584217521,12.69,67.67,35.01,96,100,23.78
314,college,US,1584217521,-147.8,64.86,19.0,72,90,4.7
315,bilma,NE,1584217521,12.92,18.69,66.69,16,0,6.73
316,batagay-alyta,RU,1584217329,130.41,67.8,-29.43,84,0,4.16
317,svetlyy,RU,1584217522,20.13,54.67,30.2,54,20,6.71
318,quatre cocos,MU,1584217522,57.76,-20.21,77.0,94,75,3.36
319,sayat,TM,1584217522,63.88,38.78,51.8,57,91,9.17
320,shaunavon,CA,1584217522,-108.42,49.65,17.19,93,100,18.39
321,bay roberts,CA,1584217522,-53.26,47.6,39.0,83,75,23.04
322,nacozari,MX,1584217523,-108.26,25.34,84.0,33,26,4.0
323,bardiyah,LY,1584217523,25.09,31.76,60.75,90,98,7.87
324,yatou,CN,1584217523,122.38,37.15,40.59,57,0,16.69
325,oktyabrskoye,RU,1584217524,44.74,43.06,48.51,84,100,2.57
326,la ronge,CA,1584217524,-105.28,55.1,3.2,59,90,4.7
327,santa maria,BR,1584217282,-53.81,-29.68,104.0,24,40,3.36
328,kharakvasla,IN,1584217524,73.77,18.43,63.09,27,0,2.51
329,yamada,JP,1584217524,141.95,39.47,31.95,77,31,5.06
330,chodavaram,IN,1584217524,82.95,17.83,73.4,94,20,2.24
331,diffa,NE,1584217524,12.61,13.32,70.29,14,0,9.13
332,julio de castilhos,BR,1584217410,-53.68,-29.23,104.0,24,40,3.36
333,lucapa,AO,1584217525,20.74,-8.42,66.33,94,70,1.99
334,arona,ES,1584217453,-16.68,28.1,66.0,63,40,13.87
335,grand gaube,MU,1584217477,57.66,-20.01,77.0,94,75,3.36
336,baillif,GP,1584217525,-61.75,16.02,78.8,78,6,5.82
337,ballina,AU,1584217525,153.57,-28.87,64.4,93,75,13.87
338,jumla,NP,1584217525,82.18,29.27,25.65,94,100,2.21
339,les cayes,HT,1584217525,-73.75,18.2,80.19,71,0,8.34
340,kjopsvik,NO,1584217526,16.37,68.1,28.4,100,90,24.16
341,rognan,NO,1584217526,15.39,67.1,37.99,64,75,32.21
342,ambilobe,MG,1584217526,49.05,-13.2,81.45,85,100,14.74
343,linkoping,SE,1584217526,15.62,58.41,32.0,56,61,4.7
344,daultala,PK,1584217526,73.14,33.19,57.0,100,0,6.93
345,namibe,AO,1584217339,12.15,-15.2,76.23,75,100,4.09
346,shiraoi,JP,1584217526,141.35,42.55,24.8,85,20,10.29
347,kisoro,UG,1584217527,29.68,-1.29,53.01,95,97,1.59
348,san patricio,MX,1584217462,-104.7,19.22,86.0,74,20,11.41
349,saint george,US,1584217511,-113.58,37.1,61.0,55,40,11.41
350,champerico,GT,1584217527,-91.92,14.3,87.8,66,40,6.93
351,carson city,US,1584217376,-119.77,39.16,51.8,80,90,16.11
352,sechura,PE,1584217527,-80.82,-5.56,75.15,86,95,16.62
353,chita,RU,1584217528,113.55,52.03,10.4,60,0,2.24
354,lukovetskiy,RU,1584217528,41.92,64.3,21.2,92,20,6.71
355,taoudenni,ML,1584217325,-3.98,22.68,74.25,10,0,3.98
356,kem,RU,1584217528,34.58,64.96,11.79,89,56,10.2
357,turukhansk,RU,1584217528,87.98,65.82,30.51,96,100,14.45
358,talcahuano,CL,1584217528,-73.12,-36.72,71.6,46,0,21.92
359,lata,PT,1584217383,-8.33,40.16,57.0,87,0,2.68
360,fare,PF,1584217529,-151.02,-16.7,83.07,75,0,16.13
361,sovetskoye,RU,1584217529,85.41,52.29,29.97,79,97,7.25
362,great bend,US,1584217529,-98.76,38.36,39.99,86,90,9.17
363,gibsons,CA,1584217529,-123.5,49.4,39.99,29,20,11.41
364,hare bay,CA,1584217529,-54.01,48.85,39.2,64,75,20.8
365,termini imerese,IT,1584217529,13.7,37.98,60.8,82,75,3.36
366,sucua,EC,1584217529,-78.17,-2.47,75.2,73,75,11.41
367,balabac,PH,1584217530,117.06,7.99,77.85,79,99,5.26
368,tumbes,PE,1584217530,-80.44,-3.57,89.6,33,75,4.7
369,cap-chat,CA,1584217270,-66.68,49.1,22.59,95,100,22.37
370,sept-iles,CA,1584217525,-66.38,50.2,32.0,71,75,10.29
371,idil,TR,1584217530,41.89,37.34,44.91,88,2,3.0
372,ayr,GB,1584217530,-4.63,55.46,50.0,87,75,19.46
373,colac,AU,1584217530,143.58,-38.33,53.01,98,11,1.99
374,huilong,CN,1584217530,121.66,31.81,48.99,64,0,1.01
375,harper,LR,1584217531,-7.72,4.38,77.67,93,67,3.02
376,linfen,CN,1584217531,111.52,36.09,45.27,24,100,2.48
377,havoysund,NO,1584217531,24.66,71.0,19.4,67,100,34.45
378,antofagasta,CL,1584217239,-70.4,-23.65,69.8,68,20,16.11
379,cangucu,BR,1584217531,-52.68,-31.39,77.0,88,90,14.99
380,smithers,CA,1584217344,-127.17,54.78,14.0,28,5,2.24
381,chokurdakh,RU,1584217456,147.92,70.63,-27.99,97,0,2.8
382,salihorsk,BY,1584217531,27.54,52.79,27.27,85,36,21.9
383,zanjan,IR,1584217532,48.48,36.67,37.17,87,98,4.12
384,imbituba,BR,1584217532,-48.67,-28.24,82.4,61,0,10.29
385,jibuti,DJ,1584217532,42.5,11.5,78.8,78,90,8.05
386,bundaberg,AU,1584217532,152.35,-24.85,66.99,82,90,5.82
387,tambacounda,SN,1584217532,-13.76,13.75,95.0,10,96,6.93
388,sakaiminato,JP,1584217532,133.23,35.55,39.2,86,75,10.29
389,rio grande,BR,1584217425,-52.1,-32.03,77.0,88,90,14.99
390,upernavik,GL,1584217532,-56.15,72.79,-10.35,97,100,3.56
391,stutterheim,ZA,1584217533,27.42,-32.57,60.93,98,67,0.96
392,ulstrup,DK,1584217533,9.79,56.39,39.2,78,69,11.41
393,urucui,BR,1584217533,-44.56,-7.23,78.39,87,100,2.1
394,novoorsk,RU,1584217533,58.98,51.38,41.0,80,100,11.18
395,ibara,JP,1584217533,133.47,34.6,33.01,93,31,4.9
396,sibu,MY,1584217533,111.82,2.3,78.01,94,75,2.24
397,makat,KZ,1584217533,53.35,47.65,53.91,81,100,13.87
398,lotofaga,WS,1584217534,-171.86,-13.98,83.79,74,95,12.37
399,sokoto,NG,1584217534,5.24,13.06,78.75,12,100,10.45
400,tongren,CN,1584217534,109.19,27.72,51.57,68,48,0.58
401,coihaique,CL,1584217534,-72.07,-45.58,59.0,51,75,3.36
402,ancud,CL,1584217340,-73.82,-41.87,60.8,59,34,6.93
403,kibaya,TZ,1584217534,36.57,-5.3,62.55,94,61,1.88
404,kieta,PG,1584217534,155.63,-6.22,83.25,78,100,11.21
405,mabaruma,GY,1584217535,-59.78,8.2,83.97,63,100,7.31
406,mahon,ES,1584217535,4.27,39.89,51.8,81,0,6.93
407,yakeshi,CN,1584217535,120.73,49.28,-8.73,91,31,6.62
408,esperance,AU,1584217535,121.9,-33.87,64.4,93,40,13.87
409,goderich,CA,1584217535,-81.72,43.75,33.01,78,100,10.0
410,yokadouma,CM,1584217535,15.05,3.52,79.11,23,94,1.21
411,eyl,SO,1584217535,49.82,7.98,79.65,82,88,15.82
412,rock sound,BS,1584217535,-76.2,24.9,73.89,80,2,13.2
413,bandarbeyla,SO,1584217535,50.81,9.49,78.57,80,53,11.45
414,kawalu,ID,1584217536,108.21,-7.38,70.83,96,97,1.43
415,kadoma,JP,1584217536,135.58,34.73,46.0,64,75,2.24
416,reconquista,AR,1584217536,-59.65,-29.15,104.0,29,20,11.41
417,port macquarie,AU,1584217536,152.92,-31.43,62.6,100,75,12.75
418,nome,US,1584217536,-165.41,64.5,32.0,99,90,4.7
419,ishigaki,JP,1584217500,124.16,24.34,62.01,66,24,24.85
420,mehamn,NO,1584217440,27.85,71.04,11.61,77,100,15.95
421,eureka,US,1584217314,-124.16,40.8,50.0,81,75,8.05
422,gijon,ES,1584217536,-5.66,43.54,48.2,81,27,4.7
423,rafaela,AR,1584217537,-61.49,-31.25,87.01,55,100,3.0
424,marsa matruh,EG,1584217537,27.25,31.35,57.2,87,100,4.7
425,hibbing,US,1584217537,-92.94,47.43,28.99,49,1,4.7
426,cidreira,BR,1584217537,-50.21,-30.18,76.95,83,0,16.89
427,kampot,KH,1584217537,104.18,10.62,80.6,78,20,6.93
428,swindon,GB,1584217537,-1.78,51.56,51.01,93,90,14.99
429,shitanjing,CN,1584217537,106.34,39.23,32.31,28,68,2.55
430,terre haute,US,1584217538,-87.41,39.47,39.99,93,90,13.87
431,port blair,IN,1584217538,92.75,11.67,81.99,69,25,6.26
432,richards bay,ZA,1584217255,32.04,-28.78,77.31,87,0,7.52
433,biltine,TD,1584217538,20.92,14.53,70.11,13,0,7.27
434,ileza,RU,1584217264,43.9,61.05,12.51,90,37,4.52
435,knyaginino,RU,1584217263,45.03,55.82,33.57,83,1,4.9
436,dingle,PH,1584217538,122.67,11.0,71.19,89,14,6.15
437,newry,GB,1584217538,-6.34,54.18,51.8,81,100,16.11
438,tagcatong,PH,1584217539,125.26,9.0,71.19,86,70,3.06
439,sambava,MG,1584217539,50.17,-14.27,72.63,97,100,7.31
440,cockburn town,TC,1584217539,-71.14,21.46,80.6,61,40,13.87
441,rio gallegos,AR,1584217443,-69.22,-51.62,66.2,37,100,17.22
442,carapegua,PY,1584217539,-57.23,-25.8,102.2,21,20,11.41
443,shubarkuduk,KZ,1584217357,56.49,49.14,39.87,90,100,9.71
444,lempaala,FI,1584217539,23.75,61.32,23.0,67,77,4.7
445,mozarlandia,BR,1584217539,-50.57,-14.74,82.89,77,9,3.65
446,atikokan,CA,1584217540,-91.62,48.76,24.75,62,56,5.55
447,okhotsk,RU,1584217540,143.3,59.38,0.99,87,100,5.95
448,namanga,KE,1584217540,36.79,-2.54,69.93,87,40,10.09
449,pangai,TO,1584217540,-174.35,-19.8,81.99,82,100,13.33
450,bom jesus da lapa,BR,1584217540,-43.42,-13.26,84.2,66,100,3.36
451,talara,PE,1584217540,-81.27,-4.58,62.6,100,69,11.41
452,tongchuan,CN,1584217540,109.09,35.08,41.85,22,34,6.69
453,daru,PG,1584217540,143.21,-9.08,73.89,95,29,4.7
454,bhawanipatna,IN,1584217541,83.17,19.9,76.41,57,100,5.84
455,walla walla,US,1584217439,-118.34,46.06,33.01,86,90,5.82
456,gamba,GA,1584217443,10.0,-2.65,79.65,89,100,3.58
457,kahului,US,1584217375,-156.47,20.89,80.6,69,40,11.41
458,borborema,BR,1584217541,-49.07,-21.62,82.53,63,13,5.17
459,banamba,ML,1584217541,-7.45,13.55,81.81,10,0,6.26
460,shenjiamen,CN,1584217541,122.3,29.96,51.57,70,0,11.99
461,norilsk,RU,1584217541,88.2,69.35,30.2,100,75,22.37
462,mao,ES,1584217542,4.27,39.89,51.8,81,0,6.93
463,san felipe,VE,1584217542,-68.74,10.34,82.53,60,0,9.51
464,chapais,CA,1584217542,-74.85,49.78,14.0,72,90,14.99
465,seguela,CI,1584217542,-6.67,7.96,84.51,37,37,4.56
466,ondjiva,AO,1584217514,15.73,-17.07,71.55,76,97,6.15
467,moundou,TD,1584217542,16.08,8.57,77.31,11,0,5.44
468,caraballeda,VE,1584217542,-66.85,10.61,78.01,65,8,10.29
469,pokrovka,KG,1584217542,78.01,42.34,33.75,47,100,3.06
470,rocha,UY,1584217466,-54.33,-34.48,76.41,75,52,5.75
471,paraibano,BR,1584217543,-43.98,-6.43,76.59,92,100,3.04
472,along,IN,1584217280,94.77,28.17,59.85,87,91,4.25
473,wattegama,LK,1584217543,81.48,6.8,70.11,93,5,3.87
474,dunedin,NZ,1584217488,170.5,-45.87,57.99,77,100,9.95
475,urusha,RU,1584217543,122.9,54.05,-16.65,86,0,2.28
476,noumea,NC,1584217543,166.46,-22.28,81.0,94,90,3.36
477,husavik,IS,1584217317,-17.34,66.04,6.8,84,40,12.75
478,tibiri,NE,1584217544,7.05,13.56,73.53,12,86,9.28
479,behbahan,IR,1584217544,50.24,30.6,55.4,82,90,18.25
480,greensburg,US,1584217459,-79.54,40.3,46.0,38,40,5.82
481,maniitsoq,GL,1584217544,-52.9,65.42,3.33,85,99,12.3
482,marawi,PH,1584217336,124.29,8.0,75.0,85,1,1.01
483,jiuquan,CN,1584217544,98.52,39.74,29.43,33,97,3.13
484,mattru,SL,1584217544,-11.83,7.62,81.27,77,100,6.02
485,shasta lake,US,1584217544,-122.37,40.68,57.2,75,90,7.7
486,wageningen,NL,1584217545,5.67,51.97,48.99,70,90,13.87
487,sarakhs,IR,1584217545,61.16,36.54,62.6,48,99,4.7
488,honiara,SB,1584217545,159.95,-9.43,78.8,88,40,4.7
489,la rioja,ES,1584217545,-2.5,42.25,50.0,76,0,2.24
490,bouna,CI,1584217545,-3.0,9.27,89.19,40,67,8.61
491,vilyuysk,RU,1584217545,121.62,63.76,2.43,96,100,6.15
492,fort nelson,CA,1584217545,-122.7,58.81,8.6,42,20,6.93
493,paredon,MX,1584217546,-93.87,16.03,82.35,69,0,8.28
494,tres arroyos,AR,1584217546,-60.28,-38.37,68.13,51,0,13.96
495,oranjemund,NA,1584217546,16.43,-28.55,63.09,91,1,10.47
496,faya,SA,1584217546,42.45,18.39,60.8,82,5,11.41
497,hervey bay,AU,1584217375,152.85,-25.3,66.99,82,90,5.82
498,puerto carreno,CO,1584217546,-67.49,6.19,96.8,39,20,11.41
499,gariaband,IN,1584217546,82.06,20.64,70.83,80,12,3.49
500,saint-pierre,RE,1584217520,55.48,-21.34,78.8,83,40,13.87
501,kuandian,CN,1584217546,124.78,40.73,30.69,61,40,9.1
502,west wendover,US,1584217547,-114.07,40.74,62.6,27,75,27.51
503,odweyne,SO,1584217547,45.06,9.41,68.49,66,6,3.74
504,merauke,ID,1584217547,140.33,-8.47,75.51,94,57,4.45
505,scotts valley,US,1584217547,-122.01,37.05,59.0,67,90,12.75
506,novobirilyussy,RU,1584217547,90.67,56.95,31.41,88,100,12.59
507,malakal,SS,1584217547,31.66,9.53,83.61,15,37,8.97
508,namatanai,PG,1584217547,152.43,-3.67,82.71,74,100,5.28
509,krasnyy luch,UA,1584217547,38.94,48.14,42.57,67,59,9.24
510,kuito,AO,1584217548,16.93,-12.38,62.01,98,100,3.71
511,miandrivazo,MG,1584217548,45.47,-19.52,78.39,83,41,1.25
512,manado,ID,1584217548,124.85,1.49,73.4,94,40,2.24
513,vardo,NO,1584217504,31.11,70.37,18.63,67,40,21.18
514,road town,VG,1584217382,-64.62,18.42,82.4,78,40,5.82
515,kitimat,CA,1584217548,-128.65,54.05,24.8,27,5,14.99
516,kazanskaya,RU,1584217548,40.44,45.41,45.0,71,13,5.88
517,itarema,BR,1584217548,-39.92,-2.92,77.49,92,98,4.09
518,newark,US,1584217492,-74.17,40.74,57.99,22,75,14.99
519,blackwater,AU,1584217549,148.88,-23.58,68.31,73,0,10.98
520,sheridan,US,1584217549,-106.92,44.83,39.2,60,90,19.46
521,san quintin,MX,1584217549,-115.95,30.48,62.91,67,43,12.06
522,wanlaweyn,SO,1584217549,44.89,2.62,79.65,80,77,10.94
523,udachnyy,RU,1584217445,112.4,66.42,15.8,92,36,6.71
524,am timan,TD,1584217549,20.28,11.03,79.11,11,0,3.89
525,atchison,US,1584217549,-95.12,39.56,37.99,86,90,14.99
526,saint-francois,FR,1584217550,3.91,46.42,45.0,80,0,4.7
527,conde,BR,1584217550,-34.91,-7.26,84.2,74,40,10.29
528,alihe,CN,1584217550,123.72,50.57,-8.19,90,0,4.38
529,tutoia,BR,1584217550,-42.27,-2.76,78.8,100,90,12.75
530,mutare,ZW,1584217550,32.67,-18.97,65.25,93,64,4.05
531,cortez,US,1584217550,-108.59,37.35,50.0,57,90,10.29
532,inuvik,CA,1584217550,-133.72,68.35,24.8,58,90,12.57
533,ouesso,CG,1584217550,16.05,1.61,78.21,57,24,1.54
534,loei,TH,1584217551,101.5,17.42,84.0,66,84,5.26
535,byron bay,AU,1584217331,153.62,-28.65,68.0,93,75,13.87
536,hanzhong,CN,1584217551,107.03,33.07,48.51,47,19,0.65
537,abu dhabi,AE,1584217551,54.37,24.47,78.8,64,100,3.36
538,honggang,CN,1584217551,124.87,46.47,7.65,83,71,19.51
539,metro,ID,1584217551,105.31,-5.11,76.05,93,99,3.53
540,hanmer springs,NZ,1584217552,172.82,-42.52,63.45,55,0,2.04
541,nyaunglebin,MM,1584217552,96.73,17.95,70.83,36,0,1.21
542,montego bay,JM,1584217552,-77.92,18.47,87.01,70,20,21.92
543,baliton,PH,1584217552,125.24,5.74,80.73,70,97,3.49
544,codrington,AU,1584217552,141.97,-38.27,58.95,71,1,15.66
545,rudsar,IR,1584217393,50.29,37.14,53.6,93,40,4.63
546,wilmington,US,1584217552,-77.94,34.23,68.0,31,90,9.17
547,kurilsk,RU,1584217553,147.88,45.23,26.73,81,100,10.51
